{
"type": "FeatureCollection",
"crs": { "type": "name", "properties": { "name": "urn:ogc:def:crs:EPSG::2154" } },
"features": [
{ "type": "Feature", "properties": { "dep": "75", "ville": "Paris (75)", "Lieu": "Arena Bercy", "latitude": 48.838649, "longitude": 2.378496, "un": 79 }, "geometry": { "type": "Point", "coordinates": [ 654382.685845512896776, 6860023.768200908787549 ] } },
{ "type": "Feature", "properties": { "dep": "75", "ville": "Paris (75)", "Lieu": "Arena Champ-de-Mars", "latitude": 48.8561446, "longitude": 2.2978204, "un": 309 }, "geometry": { "type": "Point", "coordinates": [ 648478.683495819219388, 6862018.730565934441984 ] } },
{ "type": "Feature", "properties": { "dep": "75", "ville": "Paris (75)", "Lieu": "Arena Paris Sud", "latitude": 48.830156827029597, "longitude": 2.2904798629886454, "un": 283 }, "geometry": { "type": "Point", "coordinates": [ 647914.13269547407981, 6859133.985921181738377 ] } },
{ "type": "Feature", "properties": { "dep": "75", "ville": "Paris (75)", "Lieu": "Arena Paris Sud 1", "latitude": 48.830156827029597, "longitude": 2.2904798629886454, "un": 58 }, "geometry": { "type": "Point", "coordinates": [ 647914.13269547407981, 6859133.985921181738377 ] } },
{ "type": "Feature", "properties": { "dep": "75", "ville": "Paris (75)", "Lieu": "Arena Paris Sud 6", "latitude": 48.830156827029597, "longitude": 2.2904798629886454, "un": 38 }, "geometry": { "type": "Point", "coordinates": [ 647914.13269547407981, 6859133.985921181738377 ] } },
{ "type": "Feature", "properties": { "dep": "75", "ville": "Paris (75)", "Lieu": "Arena Porte de La Chapelle", "latitude": 48.899467133332479, "longitude": 2.3598642040231961, "un": 218 }, "geometry": { "type": "Point", "coordinates": [ 653069.997806594124995, 6866797.220600781962276 ] } },
{ "type": "Feature", "properties": { "dep": "75", "ville": "Paris (75)", "Lieu": "Concorde", "latitude": 48.865589, "longitude": 2.321205, "un": 49 }, "geometry": { "type": "Point", "coordinates": [ 650203.476140047307126, 6863053.862099350430071 ] } },
{ "type": "Feature", "properties": { "dep": "75", "ville": "Paris (75)", "Lieu": "Grand Palais", "latitude": 48.866041, "longitude": 2.312406, "un": 308 }, "geometry": { "type": "Point", "coordinates": [ 649558.433777389349416, 6863109.705682036466897 ] } },
{ "type": "Feature", "properties": { "dep": "75", "ville": "Paris (75)", "Lieu": "Hôtel de ville-Invalides", "latitude": 48.856858, "longitude": 2.351415, "un": 2 }, "geometry": { "type": "Point", "coordinates": [ 652411.661900389939547, 6862064.419581434689462 ] } },
{ "type": "Feature", "properties": { "dep": "75", "ville": "Paris (75)", "Lieu": "Invalides", "latitude": 48.862286, "longitude": 2.313222, "un": 110 }, "geometry": { "type": "Point", "coordinates": [ 649614.662116171326488, 6862691.660395745187998 ] } },
{ "type": "Feature", "properties": { "dep": "75", "ville": "Paris (75)", "Lieu": "Invalides-Pont Alexandre-III", "latitude": 48.863983310546402, "longitude": 2.313578721233772, "un": 2 }, "geometry": { "type": "Point", "coordinates": [ 649642.472884187358432, 6862880.159283951856196 ] } },
{ "type": "Feature", "properties": { "dep": "75", "ville": "Paris (75)", "Lieu": "Parc des Princes", "latitude": 48.841319, "longitude": 2.253076, "un": 10 }, "geometry": { "type": "Point", "coordinates": [ 645180.135463889688253, 6860400.408096510916948 ] } },
{ "type": "Feature", "properties": { "dep": "75", "ville": "Paris (75)", "Lieu": "Pont Alexandre III", "latitude": 48.863983310546402, "longitude": 2.313578721233772, "un": 15 }, "geometry": { "type": "Point", "coordinates": [ 649642.472884187358432, 6862880.159283951856196 ] } },
{ "type": "Feature", "properties": { "dep": "75", "ville": "Paris (75)", "Lieu": "Pont Alexandre-III", "latitude": 48.863983310546402, "longitude": 2.313578721233772, "un": 5 }, "geometry": { "type": "Point", "coordinates": [ 649642.472884187358432, 6862880.159283951856196 ] } },
{ "type": "Feature", "properties": { "dep": "75", "ville": "Paris (75)", "Lieu": "Stade Roland-Garros", "latitude": 48.84732, "longitude": 2.245501, "un": 191 }, "geometry": { "type": "Point", "coordinates": [ 644630.56729846203234, 6861072.937174894846976 ] } },
{ "type": "Feature", "properties": { "dep": "75", "ville": "Paris (75)", "Lieu": "Stade Tour Eiffel", "latitude": 48.857232, "longitude": 2.296084, "un": 10 }, "geometry": { "type": "Point", "coordinates": [ 648352.359142196830362, 6862140.773593454621732 ] } },
{ "type": "Feature", "properties": { "dep": "75", "ville": "Paris (75)", "Lieu": "Stade tour Eiffel", "latitude": 48.857232, "longitude": 2.296084, "un": 43 }, "geometry": { "type": "Point", "coordinates": [ 648352.359142196830362, 6862140.773593454621732 ] } },
{ "type": "Feature", "properties": { "dep": "75", "ville": "Paris (75)", "Lieu": "Trocadéro", "latitude": 48.856262, "longitude": 2.2914, "un": 5 }, "geometry": { "type": "Point", "coordinates": [ 648007.726544698933139, 6862035.992654943838716 ] } },
{ "type": "Feature", "properties": { "dep": "77", "ville": "Vaires-sur-Marne (77)", "Lieu": "Stade nautique de Vaires-sur-Marne - Bassin eaux calmes", "latitude": 48.862229, "longitude": 2.636374, "un": 55 }, "geometry": { "type": "Point", "coordinates": [ 673322.376142461784184, 6862527.632995168678463 ] } },
{ "type": "Feature", "properties": { "dep": "77", "ville": "Vaires-sur-Marne (77)", "Lieu": "Stade nautique-Bassin eau calme", "latitude": 48.862229, "longitude": 2.636374, "un": 98 }, "geometry": { "type": "Point", "coordinates": [ 673322.376142461784184, 6862527.632995168678463 ] } },
{ "type": "Feature", "properties": { "dep": "77", "ville": "Vaires-sur-Marne (77)", "Lieu": "Stade nautique-Bassin eau vive", "latitude": 48.862229, "longitude": 2.636374, "un": 55 }, "geometry": { "type": "Point", "coordinates": [ 673322.376142461784184, 6862527.632995168678463 ] } },
{ "type": "Feature", "properties": { "dep": "78", "ville": "Saint-Quentin-en-Yvelines (78)", "Lieu": "Colline d'Elancourt", "latitude": 48.788162, "longitude": 1.967776, "un": 2 }, "geometry": { "type": "Point", "coordinates": [ 624164.544837698224001, 6854726.237354996614158 ] } },
{ "type": "Feature", "properties": { "dep": "78", "ville": "Saint-Quentin-en-Yvelines (78)", "Lieu": "Golf national", "latitude": 48.751095, "longitude": 2.0759, "un": 8 }, "geometry": { "type": "Point", "coordinates": [ 632059.586181644001044, 6850506.768035464920104 ] } },
{ "type": "Feature", "properties": { "dep": "78", "ville": "Saint-Quentin-en-Yvelines (78)", "Lieu": "Stade BMX", "latitude": 48.787261, "longitude": 2.034736, "un": 8 }, "geometry": { "type": "Point", "coordinates": [ 629082.485409469809383, 6854563.841689286753535 ] } },
{ "type": "Feature", "properties": { "dep": "78", "ville": "Saint-Quentin-en-Yvelines (78)", "Lieu": "Vélodrome National de Saint-Quentin-en-Yvelines", "latitude": 48.788046, "longitude": 2.034987, "un": 30 }, "geometry": { "type": "Point", "coordinates": [ 629101.992018785793334, 6854650.892505043186247 ] } },
{ "type": "Feature", "properties": { "dep": "78", "ville": "Saint-Quentin-en-Yvelines (78)", "Lieu": "Vélodrome national", "latitude": 48.788046, "longitude": 2.034987, "un": 56 }, "geometry": { "type": "Point", "coordinates": [ 629101.992018785793334, 6854650.892505043186247 ] } },
{ "type": "Feature", "properties": { "dep": "78", "ville": "Versailles (78)", "Lieu": "Château de Versailles", "latitude": 48.815115, "longitude": 2.08208, "un": 17 }, "geometry": { "type": "Point", "coordinates": [ 632596.669130156515166, 6857619.227599401026964 ] } },
{ "type": "Feature", "properties": { "dep": "92", "ville": "Colombes (92)", "Lieu": "Stade Yves-du-Manoir", "latitude": 48.930873, "longitude": 2.249836, "un": 46 }, "geometry": { "type": "Point", "coordinates": [ 645036.949811795260757, 6870360.438169947825372 ] } },
{ "type": "Feature", "properties": { "dep": "92", "ville": "Nanterre (92)", "Lieu": "Paris La Défense Arena", "latitude": 48.89566, "longitude": 2.22971, "un": 394 }, "geometry": { "type": "Point", "coordinates": [ 643524.205574242398143, 6866459.109515800140798 ] } },
{ "type": "Feature", "properties": { "dep": "93", "ville": "Clichy-sous-Bois (93)", "Lieu": "Clichy-sous-Bois", "latitude": 48.911108772248362, "longitude": 2.545883278930821, "un": 34 }, "geometry": { "type": "Point", "coordinates": [ 666714.798616649815813, 6867997.254698073491454 ] } },
{ "type": "Feature", "properties": { "dep": "93", "ville": "Le Bourget (93)", "Lieu": "Site d'escalade", "latitude": 48.937188, "longitude": 2.420467, "un": 10 }, "geometry": { "type": "Point", "coordinates": [ 657543.646167565719225, 6870957.402379738166928 ] } },
{ "type": "Feature", "properties": { "dep": "93", "ville": "Saint-Denis (93)", "Lieu": "Centre aquatique", "latitude": 48.923457, "longitude": 2.355527, "un": 43 }, "geometry": { "type": "Point", "coordinates": [ 652773.806043620570563, 6869467.404870565980673 ] } },
{ "type": "Feature", "properties": { "dep": "93", "ville": "Saint-Denis (93)", "Lieu": "Stade de France", "latitude": 48.924388, "longitude": 2.359871, "un": 387 }, "geometry": { "type": "Point", "coordinates": [ 653092.961332459934056, 6869568.341056148521602 ] } },
{ "type": "Feature", "properties": { "dep": "93", "ville": "Villepinte (93)", "Lieu": "Arena Paris Nord", "latitude": 48.971099842082253, "longitude": 2.5207588941961498, "un": 244 }, "geometry": { "type": "Point", "coordinates": [ 664913.778143250383437, 6874679.238917707465589 ] } },
{ "type": "Feature", "properties": { "dep": "06", "ville": "Nice (06)", "Lieu": "Stade de Nice", "latitude": 43.723747373775574, "longitude": 7.192, "un": 6 }, "geometry": { "type": "Point", "coordinates": [ 619629.961587187717669, 6840391.573635961860418 ] } },
{ "type": "Feature", "properties": { "dep": "13", "ville": "Marseille (13)", "Lieu": "Marina de Marseille", "latitude": 43.266785826148499, "longitude": 5.3715381324849893, "un": 53 }, "geometry": { "type": "Point", "coordinates": [ 633164.232978015090339, 6837038.462931822985411 ] } },
{ "type": "Feature", "properties": { "dep": "13", "ville": "Marseille (13)", "Lieu": "Stade de Marseille", "latitude": 43.270082378237255, "longitude": 5.3958959506192485, "un": 10 }, "geometry": { "type": "Point", "coordinates": [ 634147.615711415419355, 6837251.47641035169363 ] } },
{ "type": "Feature", "properties": { "dep": "36", "ville": "Châtearoux (36)", "Lieu": "Centre National de Tir de Châteauroux", "latitude": 46.815281347387099, "longitude": 1.756653040073435, "un": 27 }, "geometry": { "type": "Point", "coordinates": [ 650323.398609515046701, 6840701.450587968342006 ] } },
{ "type": "Feature", "properties": { "dep": "36", "ville": "Châtearoux (36)", "Lieu": "Centre national de tir", "latitude": 46.815281347387099, "longitude": 1.756653040073435, "un": 34 }, "geometry": { "type": "Point", "coordinates": [ 650323.398609515046701, 6840701.450587968342006 ] } },
{ "type": "Feature", "properties": { "dep": "42", "ville": "Saint-Etienne (42)", "Lieu": "Stade Geoffroy-Guichard", "latitude": 45.461821289526313, "longitude": 4.3889819680859032, "un": 6 }, "geometry": { "type": "Point", "coordinates": [ 656829.910148587077856, 6842374.444980341941118 ] } },
{ "type": "Feature", "properties": { "dep": "44", "ville": "Nantes (44)", "Lieu": "Stade de la Beaujoire", "latitude": 47.256197817818823, "longitude": -1.5246671399573153, "un": 8 }, "geometry": { "type": "Point", "coordinates": [ 673913.413373285206035, 6840866.452121599577367 ] } },
{ "type": "Feature", "properties": { "dep": "33", "ville": "Bordeaux (33)", "Lieu": "Stade de Bordeaux", "latitude": 44.897575550314542, "longitude": -0.5616003065920333, "un": 7 }, "geometry": { "type": "Point", "coordinates": [ 623705.952564389444888, 6830496.271405165083706 ] } },
{ "type": "Feature", "properties": { "dep": "59", "ville": "Lille (59)", "Lieu": "Stade Pierre-Mauroy", "latitude": 50.612069171626629, "longitude": 3.1304372910721359, "un": 43 }, "geometry": { "type": "Point", "coordinates": [ 638936.269187534810044, 6824541.8137037018314 ] } },
{ "type": "Feature", "properties": { "dep": "69", "ville": "Lyon (69)", "Lieu": "Stade de Lyon", "latitude": 45.765481928593083, "longitude": 4.9820165355056627, "un": 11 }, "geometry": { "type": "Point", "coordinates": [ 650100.472091258969158, 6828104.731682389974594 ] } },
{ "type": "Feature", "properties": { "dep": "987", "ville": "Tahiti (987)", "Lieu": "Teahupoo", "latitude": -17.843203943950556, "longitude": -149.21607680428895, "un": 14 }, "geometry": { "type": "Point", "coordinates": [ 661987.491694839671254, 6826354.052221197634935 ] } }
]
}
